{
    "locations": [
        {
            "regionSlug": "chapter-3",
            "categoryId": 306,
            "title": "Mani Bead",
            "description": "**Location:** Drops randomly on this level ??  \n\n**Effect:** ??",
            "latitude": "0.42494384278162",
            "longitude": "-0.67274093627958",
            "media": []
        },
        {
            "regionSlug": "chapter-3",
            "categoryId": 306,
            "title": "Frostsprout Twig",
            "description": "**Location:** Reward for defeating [Captain Lotus-Vision](https:\/\/mapgenie.io\/black-myth-wukong\/maps\/chapter-3?locationIds=397822)",
            "latitude": "0.65465761398860",
            "longitude": "-0.59899669750178",
            "media": []
        },
        {
            "regionSlug": "chapter-3",
            "categoryId": 306,
            "title": "Fine China Tea Bowl",
            "description": "**Location:** In chest guarded by Withered Corpse before ascending stairs\n\n**Effect:** Moderately increases Stamina Recovery Rate",
            "latitude": "0.49060490229529",
            "longitude": "-0.57506024837454",
            "media": [
                {
                    "title": "",
                    "fileName": "a996ef5c-43be-42ef-93fa-8b3b5b3821d0.jpeg",
                    "url": "https:\/\/media.mapgenie.io\/storage\/media\/a996ef5c-43be-42ef-93fa-8b3b5b3821d0.jpeg",
                    "type": "image",
                    "mimeType": "image\/jpeg"
                }
            ]
        },
        {
            "regionSlug": "chapter-3",
            "categoryId": 307,
            "title": "Ring of Fire",
            "description": "**Location:** Reward for defeating the [Macaque Chief](https:\/\/mapgenie.io\/black-myth-wukong\/maps\/chapter-3?locationIds=397824) for the 2nd time.",
            "latitude": "0.83743630247965",
            "longitude": "-0.52262037992401",
            "media": []
        },
        {
            "regionSlug": "chapter-3",
            "categoryId": 307,
            "title": "Ashen Slumber",
            "description": "**Location:** Inside Alcove blocked by purple seal. I believe this is available here if something is done in Chapter 2.\n\n**Effect:** Blow forth flames where ash is laid, for days of glory soon shall fade. Transform into a rat guar, slashing at the enemy while blowing fierce flames at them, inflicting Scorch Bane. Focus built up before transformation can be converted for use afterward.",
            "latitude": "0.46043057361337",
            "longitude": "-0.63274518931163",
            "media": []
        },
        {
            "regionSlug": "chapter-3",
            "categoryId": 310,
            "title": "Kang-Jin Staff",
            "description": "**Location:** Craftable upon defeating [Kang-Jin Loong](https:\/\/mapgenie.io\/black-myth-wukong\/maps\/chapter-3?locationIds=397821)  \n\n**Damage:** ??  \n**Critical Chance:** ??  \n\n**Unique Effect:** ??\n\n**Crafting Ingredients:**   \n- ??",
            "latitude": "0.37239294849927",
            "longitude": "-0.63391270903833",
            "media": []
        },
        {
            "regionSlug": "chapter-3",
            "categoryId": 310,
            "title": "Golden Loong Staff",
            "description": "**Location:** Craftable upon defeating [Cyan Loong](https:\/\/mapgenie.io\/black-myth-wukong\/maps\/chapter-3?locationIds=397826)  \n\n**Damage:**  108\n**Critical Chance:** 0\n\n**Unique Effect:** Moderately increases the damage dealt by all pillar stances. A loong can be summoned to execute thunder at the enemy at pillar stance Heavy attacks that cost 3 or 4 focus points.\n\n**Crafting Ingredients:**   \n- ??",
            "latitude": "0.86561236648188",
            "longitude": "-0.75637447202982",
            "media": []
        },
        {
            "regionSlug": "chapter-3",
            "categoryId": 318,
            "title": "Chen Loong",
            "description": "**Location:** Bitter Lake - North Shore Of The Bitter Lake  \n\n**Reward:** ??",
            "latitude": "0.98040415453539",
            "longitude": "-0.72172343730941",
            "media": []
        },
        {
            "regionSlug": "chapter-3",
            "categoryId": 318,
            "title": "Green-Capped Martialist",
            "description": "**Location:** Valley Of Ecstasy - Melon Field\n  \n\n**Reward:** ??",
            "latitude": "1.09100404701390",
            "longitude": "-0.64200918043923",
            "media": []
        },
        {
            "regionSlug": "chapter-3",
            "categoryId": 311,
            "title": "Elite Yaksha Patroller",
            "description": "**Reward:** ??",
            "latitude": "0.40533598149368",
            "longitude": "-0.80127754104296",
            "media": []
        },
        {
            "regionSlug": "chapter-3",
            "categoryId": 311,
            "title": "2x Frozen Corpse",
            "description": "**Reward:** ??",
            "latitude": "0.34775403151620",
            "longitude": "-0.87791027473108",
            "media": []
        },
        {
            "regionSlug": "chapter-3",
            "categoryId": 311,
            "title": "Ginsengling",
            "description": "Reward: Aged Ginseng",
            "latitude": "0.27566511107365",
            "longitude": "-0.65549009278226",
            "media": []
        },
        {
            "regionSlug": "chapter-3",
            "categoryId": 311,
            "title": "Lingzhiling, Fungiman?",
            "description": "Does not record a separate journal account, but it different.",
            "latitude": "0.57815606712155",
            "longitude": "-0.57875355298066",
            "media": []
        },
        {
            "regionSlug": "chapter-3",
            "categoryId": 311,
            "title": "Enslaved Yaksha",
            "description": "**Reward:** ??",
            "latitude": "0.52218334862656",
            "longitude": "-0.46148382822270",
            "media": []
        },
        {
            "regionSlug": "chapter-3",
            "categoryId": 311,
            "title": "Red-haired Yaksha",
            "description": "**Reward:** ??",
            "latitude": "0.50183149368195",
            "longitude": "-0.53183833146602",
            "media": []
        },
        {
            "regionSlug": "chapter-3",
            "categoryId": 312,
            "title": "Cyan Bat",
            "description": "",
            "latitude": "0.35290928452739",
            "longitude": "-0.81303253099384",
            "media": []
        },
        {
            "regionSlug": "chapter-3",
            "categoryId": 312,
            "title": "Yaksha Patroller & Cyan Bat",
            "description": "",
            "latitude": "0.34810299101741",
            "longitude": "-0.77123165130538",
            "media": []
        },
        {
            "regionSlug": "chapter-3",
            "categoryId": 312,
            "title": "Yaksha Patroller & 2x Withered Corpse",
            "description": "",
            "latitude": "0.37467440351811",
            "longitude": "-0.79339043481332",
            "media": []
        },
        {
            "regionSlug": "chapter-3",
            "categoryId": 312,
            "title": "Cyan Bat",
            "description": "",
            "latitude": "0.32285660035220",
            "longitude": "-0.95242264491546",
            "media": []
        },
        {
            "regionSlug": "chapter-3",
            "categoryId": 312,
            "title": "Cyan Bat",
            "description": "",
            "latitude": "0.29675163402368",
            "longitude": "-0.94720157528070",
            "media": []
        },
        {
            "regionSlug": "chapter-3",
            "categoryId": 312,
            "title": "Supporter Monk",
            "description": "",
            "latitude": "0.27180436988435",
            "longitude": "-0.94674861482255",
            "media": []
        },
        {
            "regionSlug": "chapter-3",
            "categoryId": 312,
            "title": "Supporter Monk",
            "description": "",
            "latitude": "0.29958773221068",
            "longitude": "-0.95300276376250",
            "media": []
        },
        {
            "regionSlug": "chapter-3",
            "categoryId": 312,
            "title": "2x Frozen Corpse",
            "description": "",
            "latitude": "0.35373858906051",
            "longitude": "-0.88766897472732",
            "media": []
        },
        {
            "regionSlug": "chapter-3",
            "categoryId": 312,
            "title": "3x Frozen Corpse",
            "description": "**Note:** Possible to drop Tiger Tally",
            "latitude": "0.33979096534576",
            "longitude": "-0.88409232571638",
            "media": []
        },
        {
            "regionSlug": "chapter-3",
            "categoryId": 312,
            "title": "Frozen Corpse",
            "description": "**Location:** ??  \n\n**Effect:** ??",
            "latitude": "0.81872009596800",
            "longitude": "-0.56415813373914",
            "media": []
        },
        {
            "regionSlug": "chapter-3",
            "categoryId": 312,
            "title": "2x Frozen Corpse",
            "description": "Two in general area.",
            "latitude": "0.26146933430137",
            "longitude": "-0.63839068291517",
            "media": []
        },
        {
            "regionSlug": "chapter-3",
            "categoryId": 312,
            "title": "2x Frozen Corpse",
            "description": "Two in general area.",
            "latitude": "0.25883896117119",
            "longitude": "-0.61521028074966",
            "media": [
                {
                    "title": "",
                    "fileName": "e717affc-98f4-4491-a40e-f606e5ff01ab.jpeg",
                    "url": "https:\/\/media.mapgenie.io\/storage\/media\/e717affc-98f4-4491-a40e-f606e5ff01ab.jpeg",
                    "type": "image",
                    "mimeType": "image\/jpeg"
                }
            ]
        },
        {
            "regionSlug": "chapter-3",
            "categoryId": 312,
            "title": "Cyan Bat",
            "description": "",
            "latitude": "0.40138016505506",
            "longitude": "-0.78101503077113",
            "media": []
        },
        {
            "regionSlug": "chapter-3",
            "categoryId": 312,
            "title": "Frozen Corpse",
            "description": "",
            "latitude": "0.84788666857355",
            "longitude": "-0.58912074252996",
            "media": []
        },
        {
            "regionSlug": "chapter-3",
            "categoryId": 312,
            "title": "Frozen Corpse",
            "description": "",
            "latitude": "0.84912373146197",
            "longitude": "-0.58249289313773",
            "media": []
        },
        {
            "regionSlug": "chapter-3",
            "categoryId": 312,
            "title": "Frozen Corpse",
            "description": "**Location:** ??  \n\n**Effect:** ??",
            "latitude": "0.84735649864227",
            "longitude": "-0.57471621651709",
            "media": []
        },
        {
            "regionSlug": "chapter-3",
            "categoryId": 312,
            "title": "5x Frozen Corpse",
            "description": "",
            "latitude": "0.40063474875326",
            "longitude": "-0.79670218405408",
            "media": []
        },
        {
            "regionSlug": "chapter-3",
            "categoryId": 312,
            "title": "Ginsengling",
            "description": "",
            "latitude": "0.40211521401568",
            "longitude": "-0.80688063248499",
            "media": []
        },
        {
            "regionSlug": "chapter-3",
            "categoryId": 312,
            "title": "3x Frozen Corpse",
            "description": "**Location:** ??  \n\n**Effect:** ??",
            "latitude": "0.26475729993967",
            "longitude": "-0.59893467922856",
            "media": []
        },
        {
            "regionSlug": "chapter-3",
            "categoryId": 312,
            "title": "2x Frozen Corpse",
            "description": "The first is in the open area below staircase. Second is at the top and will ambush you.",
            "latitude": "0.35946938252528",
            "longitude": "-0.78875985828577",
            "media": []
        },
        {
            "regionSlug": "chapter-3",
            "categoryId": 312,
            "title": "7x Frozen Corpse",
            "description": "",
            "latitude": "0.27231351882081",
            "longitude": "-0.64553293533805",
            "media": []
        },
        {
            "regionSlug": "chapter-3",
            "categoryId": 312,
            "title": "Frozen Corpse",
            "description": "",
            "latitude": "0.52284272714435",
            "longitude": "-0.64698901845554",
            "media": []
        },
        {
            "regionSlug": "chapter-3",
            "categoryId": 312,
            "title": "Cyan Bat",
            "description": "",
            "latitude": "0.47781675601497",
            "longitude": "-0.64990818864771",
            "media": []
        },
        {
            "regionSlug": "chapter-3",
            "categoryId": 312,
            "title": "Frozen Corpse",
            "description": "",
            "latitude": "0.48012974552701",
            "longitude": "-0.64589075069767",
            "media": []
        },
        {
            "regionSlug": "chapter-3",
            "categoryId": 312,
            "title": "2x Lantern Warden",
            "description": "",
            "latitude": "0.48378183263634",
            "longitude": "-0.64747337776947",
            "media": []
        },
        {
            "regionSlug": "chapter-3",
            "categoryId": 312,
            "title": "Cyan Bat",
            "description": "",
            "latitude": "0.46425929651164",
            "longitude": "-0.62663311772110",
            "media": []
        },
        {
            "regionSlug": "chapter-3",
            "categoryId": 312,
            "title": "Frozen Corpse",
            "description": "**Location:** ??  \n\n**Effect:** ??",
            "latitude": "0.81895287458978",
            "longitude": "-0.57192906674007",
            "media": []
        },
        {
            "regionSlug": "chapter-3",
            "categoryId": 312,
            "title": "Frozen Corpse",
            "description": "",
            "latitude": "0.81890869343971",
            "longitude": "-0.57736390324183",
            "media": []
        },
        {
            "regionSlug": "chapter-3",
            "categoryId": 312,
            "title": "Frozen Corpse x3",
            "description": "",
            "latitude": "0.82180968410924",
            "longitude": "-0.57377117084854",
            "media": []
        },
        {
            "regionSlug": "chapter-3",
            "categoryId": 312,
            "title": "Frozen Corpse",
            "description": "**Location:** ??  \n\n**Effect:** ??",
            "latitude": "0.82571258468373",
            "longitude": "-0.57908714408435",
            "media": []
        },
        {
            "regionSlug": "chapter-3",
            "categoryId": 312,
            "title": "Frozen Corpse",
            "description": "",
            "latitude": "0.82774491357983",
            "longitude": "-0.57873365878339",
            "media": []
        },
        {
            "regionSlug": "chapter-3",
            "categoryId": 312,
            "title": "Yaksha Patroller",
            "description": "",
            "latitude": "0.83105849108259",
            "longitude": "-0.57528717710056",
            "media": []
        },
        {
            "regionSlug": "chapter-3",
            "categoryId": 312,
            "title": "Frozen Corpse",
            "description": "",
            "latitude": "0.84276644255294",
            "longitude": "-0.57170813842603",
            "media": []
        },
        {
            "regionSlug": "chapter-3",
            "categoryId": 312,
            "title": "Blade Monk",
            "description": "",
            "latitude": "0.56403085700380",
            "longitude": "-0.61778533523332",
            "media": []
        },
        {
            "regionSlug": "chapter-3",
            "categoryId": 312,
            "title": "2x Lantern Warden",
            "description": "**Location:** ??  \n\n**Effect:** ??",
            "latitude": "0.52737949447923",
            "longitude": "-0.59208981508743",
            "media": []
        },
        {
            "regionSlug": "chapter-3",
            "categoryId": 312,
            "title": "Swift Bat",
            "description": "",
            "latitude": "0.64067980398505",
            "longitude": "-0.59982227568722",
            "media": []
        },
        {
            "regionSlug": "chapter-3",
            "categoryId": 312,
            "title": "Frozen Corpse & Lantern Warden",
            "description": "",
            "latitude": "0.63622299648873",
            "longitude": "-0.59940397739607",
            "media": []
        },
        {
            "regionSlug": "chapter-3",
            "categoryId": 312,
            "title": "Frozen Corpse",
            "description": "",
            "latitude": "0.64066223214979",
            "longitude": "-0.63104426311190",
            "media": []
        },
        {
            "regionSlug": "chapter-3",
            "categoryId": 312,
            "title": "Red-Haired Yaksha & Withered Corpse",
            "description": "**Location:** ??  \n\n**Effect:** ??",
            "latitude": "0.62956924725269",
            "longitude": "-0.64606489116349",
            "media": []
        },
        {
            "regionSlug": "chapter-3",
            "categoryId": 312,
            "title": "Monk Supporter & Lantern Warden",
            "description": "",
            "latitude": "0.56905816498896",
            "longitude": "-0.59312482314178",
            "media": []
        },
        {
            "regionSlug": "chapter-3",
            "categoryId": 312,
            "title": "Red-haired Yaksha & Withered Corpse",
            "description": "**Note:** The first archer that is unreachable is located here as well.",
            "latitude": "0.60314126675257",
            "longitude": "-0.57127493902598",
            "media": []
        },
        {
            "regionSlug": "chapter-3",
            "categoryId": 312,
            "title": "Monk Supporter",
            "description": "**Note:** The second archer that is unreachable is located here as well.",
            "latitude": "0.58584029878820",
            "longitude": "-0.57479046439565",
            "media": []
        },
        {
            "regionSlug": "chapter-3",
            "categoryId": 312,
            "title": "3x Yaksha Archer & Cyan Bat",
            "description": "The Cyan Bat is overhead and will ambush you. There are two archers that are not reachable from this walkway with a lucky jump.",
            "latitude": "0.59532284850337",
            "longitude": "-0.57747804892426",
            "media": []
        },
        {
            "regionSlug": "chapter-3",
            "categoryId": 312,
            "title": "Monk Supporter & Withered Corpse",
            "description": "",
            "latitude": "0.52294764635113",
            "longitude": "-0.46193343381879",
            "media": []
        },
        {
            "regionSlug": "chapter-3",
            "categoryId": 312,
            "title": "Blade Monk",
            "description": "",
            "latitude": "0.48897747573302",
            "longitude": "-0.65375453039630",
            "media": []
        },
        {
            "regionSlug": "chapter-3",
            "categoryId": 312,
            "title": "Yaksha Archer",
            "description": "**Location:** ??  \n\n**Effect:** ??",
            "latitude": "0.50660425982905",
            "longitude": "-0.53322682629283",
            "media": []
        },
        {
            "regionSlug": "chapter-3",
            "categoryId": 312,
            "title": "Blade Monk",
            "description": "**Location:** ??  \n\n**Effect:** ??",
            "latitude": "0.48202602911245",
            "longitude": "-0.52844380362936",
            "media": []
        },
        {
            "regionSlug": "chapter-3",
            "categoryId": 312,
            "title": "Blade Monk",
            "description": "",
            "latitude": "0.53333050057367",
            "longitude": "-0.51977296547602",
            "media": []
        },
        {
            "regionSlug": "chapter-3",
            "categoryId": 312,
            "title": "Yaksha Archer & Frozen Corpse",
            "description": "",
            "latitude": "0.53325506371509",
            "longitude": "-0.50807282659795",
            "media": []
        },
        {
            "regionSlug": "chapter-3",
            "categoryId": 312,
            "title": "Cyan Bat & Enslaved Yaksha",
            "description": "",
            "latitude": "0.52309078639252",
            "longitude": "-0.53044701945814",
            "media": []
        },
        {
            "regionSlug": "chapter-3",
            "categoryId": 312,
            "title": "Blade Monk & Withered Corpse",
            "description": "",
            "latitude": "0.50563450374159",
            "longitude": "-0.53816491396736",
            "media": []
        },
        {
            "regionSlug": "chapter-3",
            "categoryId": 312,
            "title": "Frozen Corpse",
            "description": "",
            "latitude": "0.51110151387276",
            "longitude": "-0.46074090456054",
            "media": []
        },
        {
            "regionSlug": "chapter-3",
            "categoryId": 312,
            "title": "Blade Monk & Frozen Corpse",
            "description": "",
            "latitude": "0.52854585498801",
            "longitude": "-0.63431971283143",
            "media": []
        },
        {
            "regionSlug": "chapter-3",
            "categoryId": 312,
            "title": "Yaksha Archer",
            "description": "Up on high ground. Unsure if reachable.",
            "latitude": "0.52510611813427",
            "longitude": "-0.63882874769362",
            "media": []
        },
        {
            "regionSlug": "chapter-3",
            "categoryId": 312,
            "title": "Frozen Corpse",
            "description": "",
            "latitude": "0.53468159707116",
            "longitude": "-0.60912489947515",
            "media": []
        },
        {
            "regionSlug": "chapter-3",
            "categoryId": 312,
            "title": "2x Lantern Warden",
            "description": "",
            "latitude": "0.53389521395810",
            "longitude": "-0.60531313804461",
            "media": []
        },
        {
            "regionSlug": "chapter-3",
            "categoryId": 312,
            "title": "Starved Abomination & Frozen Corpse",
            "description": "Will ambush if coming from the west.",
            "latitude": "0.53975205372079",
            "longitude": "-0.61307611559749",
            "media": []
        },
        {
            "regionSlug": "chapter-3",
            "categoryId": 312,
            "title": "Starved Abomination & Cyan Bat",
            "description": "",
            "latitude": "0.53976637035248",
            "longitude": "-0.60407227067250",
            "media": []
        },
        {
            "regionSlug": "chapter-3",
            "categoryId": 312,
            "title": "Withered Corpse",
            "description": "",
            "latitude": "0.53289222403218",
            "longitude": "-0.58811868584547",
            "media": []
        },
        {
            "regionSlug": "chapter-3",
            "categoryId": 312,
            "title": "Blade Monk; Withered Corpse; Frozen Corpse",
            "description": "",
            "latitude": "0.52554792385151",
            "longitude": "-0.58058813277597",
            "media": []
        },
        {
            "regionSlug": "chapter-3",
            "categoryId": 312,
            "title": "Withered Corpse",
            "description": "",
            "latitude": "0.49082567424226",
            "longitude": "-0.57704513864758",
            "media": []
        },
        {
            "regionSlug": "chapter-3",
            "categoryId": 312,
            "title": "Lingzhiling",
            "description": "In snake head mushroom, doesn't appear to be different Lesser Yaoguai than normal.",
            "latitude": "0.49928175330936",
            "longitude": "-0.57167716634095",
            "media": []
        },
        {
            "regionSlug": "chapter-3",
            "categoryId": 312,
            "title": "Yaksha Archer & Withered Corpse",
            "description": "",
            "latitude": "0.47984996060795",
            "longitude": "-0.45558968620759",
            "media": []
        },
        {
            "regionSlug": "chapter-3",
            "categoryId": 312,
            "title": "Frozen Corpse & Withered Corpse",
            "description": "",
            "latitude": "0.47022532958853",
            "longitude": "-0.47409513770100",
            "media": []
        },
        {
            "regionSlug": "chapter-3",
            "categoryId": 312,
            "title": "Frozen Corpse",
            "description": "",
            "latitude": "0.47596820495997",
            "longitude": "-0.46914971531953",
            "media": []
        },
        {
            "regionSlug": "chapter-3",
            "categoryId": 312,
            "title": "Withered Corpse",
            "description": "",
            "latitude": "0.47506423415264",
            "longitude": "-0.46431064610695",
            "media": []
        },
        {
            "regionSlug": "chapter-3",
            "categoryId": 312,
            "title": "Frozen Corpse",
            "description": "",
            "latitude": "0.48306678264520",
            "longitude": "-0.46401488879243",
            "media": []
        },
        {
            "regionSlug": "chapter-3",
            "categoryId": 312,
            "title": "Cyan Bat & Withered Corpse",
            "description": "",
            "latitude": "0.51560744414988",
            "longitude": "-0.45782266115194",
            "media": []
        },
        {
            "regionSlug": "chapter-3",
            "categoryId": 312,
            "title": "Cyan Bat",
            "description": "",
            "latitude": "0.51954905767839",
            "longitude": "-0.46619115326894",
            "media": []
        },
        {
            "regionSlug": "chapter-3",
            "categoryId": 312,
            "title": "Blade Monk",
            "description": "",
            "latitude": "0.52469868515827",
            "longitude": "-0.47039685700432",
            "media": []
        },
        {
            "regionSlug": "chapter-3",
            "categoryId": 313,
            "title": "Macaque Chief #1",
            "description": "**Location:** Snowhill Path - Frost-Clad Path  \n\n**Reward:** ??",
            "latitude": "0.36434881696992",
            "longitude": "-0.84959506988395",
            "media": []
        },
        {
            "regionSlug": "chapter-3",
            "categoryId": 313,
            "title": "Captain Lotus-Vision",
            "description": "**Location:** Pagoda Realm - Mani Wheel  \n\n**Reward:** \n- [Spirit of Captain Lotus-Vision](https:\/\/mapgenie.io\/black-myth-wukong\/maps\/chapter-3?locationIds=398918) \n- [Frostsprout Twig](https:\/\/mapgenie.io\/black-myth-wukong\/maps\/chapter-3?locationIds=399852)\n- Mind Core",
            "latitude": "0.64895195986385",
            "longitude": "-0.60216665267689",
            "media": []
        },
        {
            "regionSlug": "chapter-3",
            "categoryId": 313,
            "title": "Macaque Chief #2",
            "description": "**Location:** Pagoda Realm - Warding Temple\n\n**Reward:** ??",
            "latitude": "0.83588883287830",
            "longitude": "-0.52273035049421",
            "media": []
        },
        {
            "regionSlug": "chapter-3",
            "categoryId": 313,
            "title": "Apramana Bat",
            "description": "**Location:** Bitter Lake - North Shore Of The Bitter Lake\n\n**Reward:** ??",
            "latitude": "0.94887381031336",
            "longitude": "-0.69219089577138",
            "media": []
        },
        {
            "regionSlug": "chapter-3",
            "categoryId": 313,
            "title": "Yin Tiger",
            "description": "**Location:** Zodiac Village - Village Entrance\n\n**Reward:** ??",
            "latitude": "1.00841560806700",
            "longitude": "-0.77359199523775",
            "media": []
        },
        {
            "regionSlug": "chapter-3",
            "categoryId": 313,
            "title": "Non-White",
            "description": "**Location:** Valley Of Ecstasy - Mindfulness Cliff\n\n**Reward:** \n- [Non-White Spirit](https:\/\/mapgenie.io\/black-myth-wukong\/maps\/chapter-3?locationIds=398920)",
            "latitude": "1.04453883750410",
            "longitude": "-0.64276456832840",
            "media": []
        },
        {
            "regionSlug": "chapter-3",
            "categoryId": 313,
            "title": "Lang-Li-Guhh-Lang",
            "description": "**Location:** Valley Of Ecstasy - Forest Of Felicity\n  \n\n**Reward:** \n- Tadpole\n- Refined Iron Sand \n- Yaoguai Core.",
            "latitude": "1.07280229325110",
            "longitude": "-0.65564726967580",
            "media": []
        },
        {
            "regionSlug": "chapter-3",
            "categoryId": 313,
            "title": "Old Ginseng Guai",
            "description": "**Location:** Valley Of Ecstasy - Forest Of Felicity\n  \n\n**Reward:** \n- [Old Ginseng Guai Spirit](https:\/\/mapgenie.io\/black-myth-wukong\/maps\/chapter-3?locationIds=399046)",
            "latitude": "1.10064918865030",
            "longitude": "-0.64537435770080",
            "media": []
        },
        {
            "regionSlug": "chapter-3",
            "categoryId": 313,
            "title": "Non-Able",
            "description": "**Location:** Valley Of Ecstasy - Brook Of Bliss  \n  \n\n**Reward:** \n- [Non-Able Spirit](https:\/\/mapgenie.io\/black-myth-wukong\/maps\/chapter-3?locationIds=399047)",
            "latitude": "1.08683028384080",
            "longitude": "-0.61738014221248",
            "media": []
        },
        {
            "regionSlug": "chapter-3",
            "categoryId": 313,
            "title": "Captain Void-Illusion",
            "description": "**Location:** Valley Of Ecstasy - Longevity Road\n  \n\n**Reward:** \n- [Captain Void-Illusion Spirit](https:\/\/mapgenie.io\/black-myth-wukong\/maps\/chapter-3?locationIds=399048)",
            "latitude": "1.10102462860620",
            "longitude": "-0.62909066677145",
            "media": []
        },
        {
            "regionSlug": "chapter-3",
            "categoryId": 313,
            "title": "Captain Kalpa-Wave",
            "description": "**Location:** Valley Of Ecstasy - Longevity Road\n  \n\n**Reward:** \n- [Captain Kalpa-Wave Spirit](https:\/\/mapgenie.io\/black-myth-wukong\/maps\/chapter-3?locationIds=399049)",
            "latitude": "1.12272283311850",
            "longitude": "-0.62385508887832",
            "media": []
        },
        {
            "regionSlug": "chapter-3",
            "categoryId": 313,
            "title": "Non-Pure",
            "description": "**Location:** New Thunderclap Temple - Temple Entrance\n  \n\n**Reward:** \n- [Non-Pure Spirit](https:\/\/mapgenie.io\/black-myth-wukong\/maps\/chapter-3?locationIds=399050)",
            "latitude": "1.14582779786550",
            "longitude": "-0.61803861218655",
            "media": []
        },
        {
            "regionSlug": "chapter-3",
            "categoryId": 313,
            "title": "Non-Void",
            "description": "**Location:** New Thunderclap Temple - Temple Entrance\n  \n\n**Reward:** \n- [Non-Void Spirit](https:\/\/mapgenie.io\/black-myth-wukong\/maps\/chapter-3?locationIds=399051)",
            "latitude": "1.13661003247650",
            "longitude": "-0.64084927902528",
            "media": []
        },
        {
            "regionSlug": "chapter-3",
            "categoryId": 313,
            "title": "Monk From The Sea",
            "description": "**Location:** New Thunderclap Temple - Temple Entrance\n  \n\n**Reward:** ??",
            "latitude": "1.13507981772390",
            "longitude": "-0.61436634663679",
            "media": []
        },
        {
            "regionSlug": "chapter-3",
            "categoryId": 314,
            "title": "Kang-Jin Loong",
            "description": "**Location:** Snowhill Path - Mirrormere\n  \n\n**Reward:**\n- Starlit Cloud-Bidden Antler",
            "latitude": "0.36700951412010",
            "longitude": "-0.63411712646314",
            "media": [
                {
                    "title": "",
                    "fileName": "10594f4c-235f-4656-af3e-e76b6e2951b0.jpeg",
                    "url": "https:\/\/media.mapgenie.io\/storage\/media\/10594f4c-235f-4656-af3e-e76b6e2951b0.jpeg",
                    "type": "image",
                    "mimeType": "image\/jpeg"
                }
            ]
        },
        {
            "regionSlug": "chapter-3",
            "categoryId": 314,
            "title": "Captain Wise-Voice",
            "description": "**Location:** Pagoda Realm - Mani Wheel  \n\n**Reward:**\n- [Spirit of Captain Wise-Voice](https:\/\/mapgenie.io\/black-myth-wukong\/maps\/chapter-3?locationIds=398919)\n- Mind Core",
            "latitude": "0.71387323127763",
            "longitude": "-0.61376452445899",
            "media": []
        },
        {
            "regionSlug": "chapter-3",
            "categoryId": 314,
            "title": "Kang-Jin Star",
            "description": "**Location:** Bitter Lake - Turtle Island\n\n**Reward:**\n- Loong Pearl\n- Mind Core",
            "latitude": "0.91389076568014",
            "longitude": "-0.77336589613597",
            "media": []
        },
        {
            "regionSlug": "chapter-3",
            "categoryId": 314,
            "title": "Cyan Loong",
            "description": "**Location:** Bitter Lake - Turtle Island - You must interact with the dragon statue using the [Loong Scales](https:\/\/mapgenie.io\/black-myth-wukong\/maps\/chapter-2?locationIds=398767)\n\n**Reward:**\n- Tridacna Pendant\n- Thunderbone\n- Loong Pearl x1\n- Refined Iron Sand x2\n- Mind Core x1",
            "latitude": "0.86294130184690",
            "longitude": "-0.75829803943563",
            "media": [
                {
                    "title": "",
                    "fileName": "f4ba339a-825f-4f61-b645-b3c80a0b38ee.jpg",
                    "url": "https:\/\/media.mapgenie.io\/storage\/media\/f4ba339a-825f-4f61-b645-b3c80a0b38ee.jpg",
                    "type": "image",
                    "mimeType": "image\/jpeg"
                }
            ]
        },
        {
            "regionSlug": "chapter-3",
            "categoryId": 314,
            "title": "Yellowbrow + Macaque Chief",
            "description": "**Location:** New Thunderclap Temple - Mahavira Hall\n\n  \n\n**Reward:** ??",
            "latitude": "1.15027839388230",
            "longitude": "-0.62585935956017",
            "media": []
        },
        {
            "regionSlug": "chapter-3",
            "categoryId": 318,
            "title": "Keeper of the New West",
            "description": "",
            "latitude": "0.39503846703253",
            "longitude": "-0.78733895053989",
            "media": []
        },
        {
            "regionSlug": "chapter-3",
            "categoryId": 318,
            "title": "Old Man",
            "description": "",
            "latitude": "1.00838673963370",
            "longitude": "-0.72394123603141",
            "media": []
        },
        {
            "regionSlug": "chapter-3",
            "categoryId": 318,
            "title": "Keeper of the New West",
            "description": "You encounter him once you go to the tree in the middle of the area. taking you to the next area",
            "latitude": "0.39451122133877",
            "longitude": "-0.75578225062571",
            "media": []
        },
        {
            "regionSlug": "chapter-3",
            "categoryId": 318,
            "title": "???",
            "description": "Blinded and deafened NPC in the cell blocked by purple seal.",
            "latitude": "0.46012162697782",
            "longitude": "-0.63120040629155",
            "media": []
        },
        {
            "regionSlug": "chapter-3",
            "categoryId": 319,
            "title": "Aged Ginseng",
            "description": "",
            "latitude": "0.26064544423843",
            "longitude": "-0.64496397972019",
            "media": []
        },
        {
            "regionSlug": "chapter-3",
            "categoryId": 319,
            "title": "Aged Ginseng",
            "description": "",
            "latitude": "0.34152901577762",
            "longitude": "-0.89360475540076",
            "media": []
        },
        {
            "regionSlug": "chapter-3",
            "categoryId": 320,
            "title": "Fire Bellflower",
            "description": "",
            "latitude": "0.37164284560293",
            "longitude": "-0.75167191732459",
            "media": []
        },
        {
            "regionSlug": "chapter-3",
            "categoryId": 320,
            "title": "Fire Bellflower",
            "description": "",
            "latitude": "0.25719296409024",
            "longitude": "-0.60297704784227",
            "media": []
        },
        {
            "regionSlug": "chapter-3",
            "categoryId": 320,
            "title": "Fire Bellflower",
            "description": "",
            "latitude": "0.25354519606265",
            "longitude": "-0.59838510600895",
            "media": []
        },
        {
            "regionSlug": "chapter-3",
            "categoryId": 320,
            "title": "Fire Bellflower",
            "description": "**Contains:** Fire Bellflower x2",
            "latitude": "0.27145500040723",
            "longitude": "-0.59855244650765",
            "media": [
                {
                    "title": "",
                    "fileName": "cd444331-f99d-47bd-bc8a-99b7196703be.jpeg",
                    "url": "https:\/\/media.mapgenie.io\/storage\/media\/cd444331-f99d-47bd-bc8a-99b7196703be.jpeg",
                    "type": "image",
                    "mimeType": "image\/jpeg"
                }
            ]
        },
        {
            "regionSlug": "chapter-3",
            "categoryId": 322,
            "title": "Jade Lotus",
            "description": "",
            "latitude": "0.30022224810324",
            "longitude": "-0.95931839854566",
            "media": []
        },
        {
            "regionSlug": "chapter-3",
            "categoryId": 322,
            "title": "Jade Lotus",
            "description": "",
            "latitude": "0.80033224903119",
            "longitude": "-0.60540676356558",
            "media": []
        },
        {
            "regionSlug": "chapter-3",
            "categoryId": 322,
            "title": "Jade Lotus",
            "description": "",
            "latitude": "0.80567514211953",
            "longitude": "-0.61308162617135",
            "media": []
        },
        {
            "regionSlug": "chapter-3",
            "categoryId": 322,
            "title": "Fire Bellflower",
            "description": "",
            "latitude": "0.80884958725815",
            "longitude": "-0.57338386774148",
            "media": []
        },
        {
            "regionSlug": "chapter-3",
            "categoryId": 322,
            "title": "Jade Lotus",
            "description": "",
            "latitude": "0.39651549956942",
            "longitude": "-0.77498129771212",
            "media": []
        }
    ]
}